[{
	"name": "Exe Gym",
	"facilityType": "GYM",
	"latitude": 45.26098552751219,
	"longitude": 19.82458288946685,
	"street":"Pariske komune",
	"streetNumber":"24",
	"postCode": "21000",
	"city": "Novi Sad",
	"averageRating": 8.5,
	"imageName":"exeGym.png"
},
{
	"name": "Mega Gym",
	"facilityType": "GYM",
	"latitude": 45.27151777791577,
	"longitude": 19.841149533196067,
	"street":"Temerinska",
	"streetNumber":"95",
	"postCode": "21000",
	"city": "Novi Sad",
	"averageRating": 9.4,
	"imageName":"megaGym.png"
},
{
	"name": "H2O Gym",
	"facilityType": "GYM",
	"latitude": 44.74512,
	"longitude": 19.71247,
	"street":"Hajduk Veljkova",
	"streetNumber":"bb",
	"postCode": "15000",
	"city": "Sabac",
	"averageRating": 4.5,
	"imageName":"h2oGym.png"
},
{
	"name": "Spens",
	"facilityType": "POOL",
	"latitude": 45.24592089793905,
	"longitude": 19.845625947807406,
	"street":"Sutjeska",
	"streetNumber":"2",
	"postCode": "21000",
	"city": "Novi Sad",
	"averageRating": 9.4,
	"imageName":"spens.png"
},
{ 
	"name": "Classic Gym",
	"facilityType": "GYM",
	"latitude": 45.25408957362792,
	"longitude": 19.836346838598804,
	"street":"Bulevar Oslobodjenja",
	"streetNumber":"83",
	"postCode": "21000",
	"city": "Novi Sad",
	"averageRating": 9.4,
	"imageName":"classicGym.png"
},
{
	"name": "Sajmiste",
	"facilityType": "POOL",
	"latitude": 45.252253434100716,
	"longitude": 19.825221298511767,
	"street":"Novosadskog sajma",
	"streetNumber":"37",
	"postCode": "21000",
	"city": "Novi Sad",
	"averageRating": 9.4,
	"imageName":"sajmiste.png"
}
]